[
    {
        "id": 0,
        "date": "2020-03-09",
        "link": "https://www.youtube.com/watch?v=JNDva-0fPK4",
        "title": "【惡靈】第一次深夜台",
        "tags": ["MC原味生存"],
        "hours": "01:01:15"
    },
    {
        "id": 1,
        "date": "2020-05-31",
        "link": "https://www.youtube.com/watch?v=IYK5__0IXy0",
        "title": "【惡靈】來耍廢廢咯",
        "tags": ["MC原味生存", "MC地下城"],
        "hours": "02:34:32"
    },
    {
        "id": 2,
        "date": "2021-01-10",
        "link": "https://www.youtube.com/watch?v=_6jm7wAPdGw",
        "title": "【惡靈】新年新絕望",
        "tags": ["MC原味生存"],
        "hours": "03:11:34"
    },
    {
        "id": 3,
        "date": "2021-03-04",
        "link": "https://www.youtube.com/watch?v=a2F9dW-SODQ",
        "title": "【惡靈】我怎麼每次在情人節開台啊",
        "tags": ["MC原味生存"],
        "hours": "02:15:26"
    },
    {
        "id": 4,
        "date": "2021-04-11",
        "link": "https://www.youtube.com/watch?v=npt1EELQRwQ",
        "title": "【惡靈】想不到標題啦",
        "tags": ["MC原味生存"],
        "hours": "02:33:33"
    },
    {
        "id": 5,
        "date": "2021-05-02",
        "link": "https://www.youtube.com/watch?v=Vy-dUa8CX5g",
        "title": "【惡靈】 (,,・ω・,,)",
        "tags": ["MC原味生存", "MC盖地图"],
        "hours": "02:32:17"
    },
    {
        "id": 6,
        "date": "2021-05-09",
        "link": "https://www.youtube.com/watch?v=9vaXDcm-k88",
        "title": "【惡靈】一起頹廢",
        "tags": ["MC原味生存", "MC盖地图"],
        "hours": "02:34:01"
    },
    {
        "id": 7,
        "date": "2021-07-04",
        "link": "https://www.youtube.com/watch?v=_cp96tH51aQ",
        "title": "【惡靈】不知不覺混過半個2021年了",
        "tags": ["MC原味生存"],
        "hours": "02:02:04"
    },
    {
        "id": 8,
        "date": "2021-07-25",
        "link": "https://www.youtube.com/watch?v=9x91crDVlTs",
        "title": "【惡靈】想不到標題啦",
        "tags": ["MC空岛生存"],
        "hours": "01:53:03"
    }
]